City ID,City,Country,Date,Lat,Lng,Max Temp,Humidity,Cloudiness,Wind Speed,Current Description,Rain inches (last 3 hrs),Snow inches (last 3 hrs)
0,Hithadhoo,MV,2020-04-17 19:28:23,-0.6,73.08,84.81,72,36,7.27,scattered clouds,0.000,0
1,Codrington,AU,2020-04-17 19:26:43,-38.27,141.97,55.9,76,90,12.77,light rain,0.160,0
2,Coquimbo,CL,2020-04-17 19:28:24,-29.95,-71.34,62.6,77,0,16.11,clear sky,0.000,0
3,Mataura,NZ,2020-04-17 19:28:25,-46.19,168.86,50.0,91,100,7.0,light rain,0.120,0
4,Bilibino,RU,2020-04-17 19:28:27,68.05,166.44,-2.24,85,12,4.76,few clouds,0.000,0
5,Berlevag,NO,2020-04-17 19:28:27,70.86,29.09,33.8,93,75,23.04,broken clouds,0.000,0
6,Rikitea,PF,2020-04-17 19:28:28,-23.12,-134.97,76.86,65,53,5.21,broken clouds,0.000,0
7,Castro,BR,2020-04-17 19:28:29,-24.79,-50.01,73.47,26,5,1.68,clear sky,0.000,0
8,Mahajanga,MG,2020-04-17 19:28:30,-15.72,46.32,78.8,69,20,5.82,few clouds,0.000,0
9,Barreiro,PT,2020-04-17 19:28:31,38.66,-9.07,61.0,72,20,6.93,few clouds,0.000,0
10,Albuquerque,US,2020-04-17 19:27:01,35.08,-106.65,64.4,20,20,6.26,few clouds,0.000,0
11,Hambantota,LK,2020-04-17 19:27:31,6.12,81.12,78.8,100,20,2.24,few clouds,0.000,0
12,Myaundzha,RU,2020-04-17 19:28:33,63.05,147.19,-7.31,78,100,4.09,overcast clouds,0.000,0
13,Ekuvukeni,ZA,2020-04-17 19:28:33,-28.47,30.16,59.05,60,0,4.88,clear sky,0.000,0
14,Emporia,US,2020-04-17 19:28:34,38.4,-96.18,44.01,75,90,12.75,overcast clouds,0.000,0
15,Kapaa,US,2020-04-17 19:25:41,22.08,-159.32,78.8,69,20,11.41,few clouds,0.000,0
16,Carauari,BR,2020-04-17 19:28:35,-4.88,-66.9,82.94,80,72,4.63,moderate rain,3.750,0
17,Bethel,US,2020-04-17 19:24:52,41.37,-73.41,48.99,34,48,5.01,scattered clouds,0.000,0
18,Omsukchan,RU,2020-04-17 19:28:36,62.53,155.8,1.06,85,100,4.68,overcast clouds,0.000,0
19,Mbigou,GA,2020-04-17 19:28:37,-1.9,11.91,71.89,80,97,4.23,moderate rain,3.870,0
20,Idlib,SY,2020-04-17 19:28:37,35.93,36.63,66.2,63,34,3.36,scattered clouds,0.000,0
21,Bathsheba,BB,2020-04-17 19:27:01,13.22,-59.52,86.0,58,40,18.34,scattered clouds,0.000,0
22,Cap Malheureux,MU,2020-04-17 19:28:39,-19.98,57.61,77.0,78,40,11.41,scattered clouds,0.000,0
23,Nicoya,CR,2020-04-17 19:28:42,10.15,-85.45,95.0,36,40,11.41,scattered clouds,0.000,0
24,Mosetse,BW,2020-04-17 19:28:44,-20.75,26.65,75.92,37,68,14.36,broken clouds,0.000,0
25,Jamestown,US,2020-04-17 19:28:46,42.1,-79.24,32.0,86,90,8.05,light snow,0.000,0
26,Cape Town,ZA,2020-04-17 19:28:00,-33.93,18.42,62.01,72,42,10.29,scattered clouds,0.000,0
27,Ancud,CL,2020-04-17 19:26:20,-41.87,-73.82,60.8,100,90,9.17,overcast clouds,0.000,0
28,Matagami,CA,2020-04-17 19:28:49,49.75,-77.63,32.0,87,90,16.11,overcast clouds,0.000,0
29,La Ronge,CA,2020-04-17 19:24:34,55.1,-105.28,44.6,52,90,13.87,overcast clouds,0.000,0
30,Hilo,US,2020-04-17 19:25:59,19.73,-155.09,75.2,64,75,4.7,broken clouds,0.000,0
31,Ushuaia,AR,2020-04-17 19:28:51,-54.8,-68.3,57.2,30,20,17.22,few clouds,0.000,0
32,Lumberton,US,2020-04-17 19:28:53,34.62,-79.01,73.99,25,1,18.34,clear sky,0.000,0
33,Vezirkopru,TR,2020-04-17 19:28:53,41.14,35.45,50.0,57,56,1.12,broken clouds,0.000,0
34,Bredasdorp,ZA,2020-04-17 19:28:56,-34.53,20.04,55.4,76,94,4.7,overcast clouds,0.000,0
35,Severo-Kurilsk,RU,2020-04-17 19:27:50,50.68,156.12,28.9,95,98,16.08,overcast clouds,0.000,0
36,Karad,IN,2020-04-17 19:28:58,17.28,74.2,77.86,67,9,6.51,clear sky,0.000,0
37,Dingle,PH,2020-04-17 19:28:58,11.0,122.67,80.44,78,3,8.19,clear sky,0.000,0
38,Saint-Philippe,RE,2020-04-17 19:28:59,-21.36,55.77,77.0,69,25,20.8,light rain,0.120,0
39,Puerto Ayora,EC,2020-04-17 19:25:29,-0.74,-90.35,78.8,94,90,6.93,drizzle rain,0.000,0
40,Ribeira Grande,PT,2020-04-17 19:29:01,38.52,-28.7,62.6,67,20,9.17,few clouds,0.000,0
41,Khatanga,RU,2020-04-17 19:29:01,71.97,102.5,7.25,90,0,13.06,clear sky,0.000,0
42,Padang,ID,2020-04-17 19:26:12,-0.95,100.35,78.08,77,67,3.67,light rain,0.150,0
43,Hermanus,ZA,2020-04-17 19:29:02,-34.42,19.23,60.01,83,67,1.01,broken clouds,0.000,0
44,Simao,CN,2020-04-17 19:29:04,22.79,100.97,64.27,44,81,1.57,broken clouds,0.000,0
45,Socorro,US,2020-04-17 19:29:05,31.65,-106.3,75.2,18,75,3.36,broken clouds,0.000,0
46,Paamiut,GL,2020-04-17 19:28:24,61.99,-49.67,29.14,87,100,7.02,light snow,0.000,0
47,Faanui,PF,2020-04-17 19:29:05,-16.48,-151.75,82.85,69,88,6.91,light rain,0.910,0
48,Krasnoselkup,RU,2020-04-17 19:29:06,65.7,82.47,34.72,94,100,15.19,overcast clouds,0.000,0
49,Tasiilaq,GL,2020-04-17 19:26:24,65.61,-37.64,34.93,93,100,21.36,moderate rain,11.610,0
50,Mancora,PE,2020-04-17 19:29:08,-4.11,-81.05,87.8,58,2,17.22,clear sky,0.000,0
51,Bluff,NZ,2020-04-17 19:25:55,-46.6,168.33,50.0,91,98,7.0,overcast clouds,0.000,0
52,Fiumicino,IT,2020-04-17 19:29:11,41.77,12.23,61.0,100,20,4.7,few clouds,0.000,0
53,Avarua,CK,2020-04-17 19:29:12,-21.21,-159.78,78.8,78,98,4.7,overcast clouds,0.000,0
54,Chokurdakh,RU,2020-04-17 19:29:12,70.63,147.92,-14.39,90,51,3.71,broken clouds,0.000,0
55,Grafing,DE,2020-04-17 19:29:13,48.05,11.97,59.0,61,80,1.36,broken clouds,0.000,0
56,Quatre Cocos,MU,2020-04-17 19:26:31,-20.21,57.76,77.0,78,40,11.41,scattered clouds,0.000,0
57,Punta Arenas,CL,2020-04-17 19:27:27,-53.15,-70.92,57.2,54,4,8.05,clear sky,0.000,0
58,Vaini,TO,2020-04-17 19:29:16,-21.2,-175.2,75.2,83,20,6.93,few clouds,0.000,0
59,Grand Gaube,MU,2020-04-17 19:26:51,-20.01,57.66,77.0,78,40,11.41,scattered clouds,0.000,0
60,Atuona,PF,2020-04-17 19:26:39,-9.8,-139.03,82.09,74,95,13.4,overcast clouds,0.000,0
61,Xichang,CN,2020-04-17 19:29:18,27.9,102.26,61.09,37,53,2.42,light rain,0.250,0
62,Ewa Beach,US,2020-04-17 19:29:19,21.32,-158.01,80.6,57,20,3.36,few clouds,0.000,0
63,Albany,US,2020-04-17 19:25:53,42.6,-73.97,50.0,23,90,3.0,overcast clouds,0.000,0
64,Provideniya,RU,2020-04-17 19:29:22,64.38,-173.3,31.26,96,100,14.85,light rain,0.720,0
65,Korla,CN,2020-04-17 19:29:23,41.76,86.15,61.43,33,43,6.13,scattered clouds,0.000,0
66,Port Elizabeth,ZA,2020-04-17 19:29:24,-33.92,25.57,62.6,93,41,4.7,scattered clouds,0.000,0
67,Asau,RO,2020-04-17 19:29:25,46.43,26.4,60.8,44,43,11.41,scattered clouds,0.000,0
68,Revda,RU,2020-04-17 19:29:26,56.8,59.93,41.0,65,97,8.95,light rain,0.130,0
69,New Norfolk,AU,2020-04-17 19:25:59,-42.78,147.06,48.99,80,66,1.01,light rain,0.130,0
70,Boralday,KZ,2020-04-17 19:29:31,43.36,76.86,48.2,66,40,6.71,scattered clouds,0.000,0
71,Tierra Blanca,HN,2020-04-17 19:24:50,14.58,-88.58,92.37,16,1,7.2,clear sky,0.000,0
72,Luderitz,NA,2020-04-17 19:29:32,-26.65,15.16,62.6,77,0,8.05,clear sky,0.000,0
73,Mahebourg,MU,2020-04-17 19:26:35,-20.41,57.7,77.0,78,40,11.41,scattered clouds,0.000,0
74,Areosa,PT,2020-04-17 19:29:36,41.72,-8.86,61.0,87,40,9.17,scattered clouds,0.000,0
75,College,US,2020-04-17 19:29:36,64.86,-147.8,42.01,65,90,2.75,overcast clouds,0.000,0
76,Alyangula,AU,2020-04-17 19:29:38,-13.85,136.42,71.6,100,98,2.91,overcast clouds,0.000,0
77,Bam,IR,2020-04-17 19:29:38,29.11,58.36,69.17,28,70,3.71,broken clouds,0.000,0
78,Khor,RU,2020-04-17 19:29:39,47.89,134.95,42.24,72,30,4.74,scattered clouds,0.000,0
79,Hobart,AU,2020-04-17 19:28:18,-42.88,147.33,50.0,57,75,14.99,broken clouds,0.000,0
80,Nome,US,2020-04-17 19:29:41,64.5,-165.41,35.6,100,90,11.41,light rain,0.000,0
81,Talara,PE,2020-04-17 19:29:42,-4.58,-81.27,87.8,58,2,17.22,clear sky,0.000,0
82,Lasa,IT,2020-04-17 19:29:43,46.62,10.7,48.2,57,40,2.53,scattered clouds,0.000,0
83,Kenai,US,2020-04-17 19:29:44,60.55,-151.26,39.99,93,90,3.36,fog,0.000,0
84,Guerrero Negro,MX,2020-04-17 19:24:57,27.98,-114.06,70.47,43,19,7.47,few clouds,0.000,0
85,Sao Filipe,CV,2020-04-17 19:29:45,14.9,-24.5,70.27,77,22,26.24,few clouds,0.000,0
86,Whangarei,NZ,2020-04-17 19:29:46,-35.73,174.32,60.01,97,87,1.01,light rain,0.180,0
87,Yar-Sale,RU,2020-04-17 19:29:48,66.83,70.83,36.77,98,100,19.39,overcast clouds,0.000,0
88,Holme,DK,2020-04-17 19:29:48,56.11,10.17,44.6,48,39,3.36,scattered clouds,0.000,0
89,Butaritari,KI,2020-04-17 19:29:48,3.07,172.79,82.4,80,89,15.9,light rain,0.880,0
90,Qaanaaq,GL,2020-04-17 19:29:49,77.48,-69.36,21.31,85,14,3.58,few clouds,0.000,0
91,Murliganj,IN,2020-04-17 19:29:50,25.9,86.98,84.51,42,32,11.27,scattered clouds,0.000,0
92,Axim,GH,2020-04-17 19:29:51,4.87,-2.24,82.69,82,96,11.54,light rain,2.400,0
93,Lower Burrell,US,2020-04-17 19:25:16,40.55,-79.76,48.99,78,98,1.01,light rain,0.550,0
94,Barao De Melgaco,BR,2020-04-17 19:29:52,-16.19,-55.97,87.8,48,20,8.05,few clouds,0.000,0
95,Cabo San Lucas,MX,2020-04-17 19:26:52,22.89,-109.91,82.99,56,5,19.46,clear sky,0.000,0
96,Glubokiy,RU,2020-04-17 19:29:56,48.52,40.33,51.28,48,79,8.95,broken clouds,0.000,0
97,Tabuk,PH,2020-04-17 19:29:56,17.42,121.44,73.65,82,99,4.0,overcast clouds,0.000,0
98,Auki,SB,2020-04-17 19:29:59,-8.77,160.7,80.87,75,59,1.1,moderate rain,3.530,0
99,Mar Del Plata,AR,2020-04-17 19:28:08,-38.0,-57.56,72.0,53,31,12.75,scattered clouds,0.000,0
100,Nikolskoye,RU,2020-04-17 19:30:01,59.7,30.79,37.4,89,90,17.9,light intensity shower rain,0.000,0
101,Carutapera,BR,2020-04-17 19:30:02,-1.2,-46.02,79.36,81,100,6.64,moderate rain,3.990,0
102,Iqaluit,CA,2020-04-17 19:30:03,63.75,-68.51,10.4,66,75,3.36,broken clouds,0.000,0
103,Gunnedah,AU,2020-04-17 19:30:04,-30.98,150.25,44.6,93,100,3.71,overcast clouds,0.000,0
104,Dumingag,PH,2020-04-17 19:30:07,8.17,123.35,75.38,84,8,1.48,clear sky,0.000,0
105,Rezekne,LV,2020-04-17 19:30:09,56.5,27.32,33.3,85,50,11.7,scattered clouds,0.000,0
106,Shakawe,BW,2020-04-17 19:30:10,-18.37,21.85,75.0,36,58,4.72,broken clouds,0.000,0
107,Miraflores,MX,2020-04-17 19:30:12,19.22,-98.81,80.6,26,40,4.7,scattered clouds,0.000,0
108,Komsomolskiy,UZ,2020-04-17 19:30:13,40.43,71.72,57.2,62,88,4.7,overcast clouds,0.000,0
109,Alofi,NU,2020-04-17 19:30:13,-19.06,-169.92,77.0,94,2,5.82,clear sky,0.000,0
110,Arraial Do Cabo,BR,2020-04-17 19:30:14,-22.97,-42.03,75.2,78,75,9.17,broken clouds,0.000,0
111,Kungurtug,RU,2020-04-17 19:30:15,50.6,97.52,30.0,56,96,1.74,light snow,0.000,0
112,East London,ZA,2020-04-17 19:26:35,-33.02,27.91,68.9,68,11,8.55,few clouds,0.000,0
113,Barrow,US,2020-04-17 19:30:16,71.29,-156.79,10.4,85,90,17.22,light snow,0.000,0
114,Linhai,CN,2020-04-17 19:29:34,28.85,121.12,64.0,65,60,0.58,broken clouds,0.000,0
115,Anito,PH,2020-04-17 19:30:20,12.45,125.29,79.5,85,37,10.71,light rain,0.840,0
116,Lebu,CL,2020-04-17 19:30:21,-37.62,-73.65,63.16,84,100,6.82,light rain,0.110,0
117,Hay River,CA,2020-04-17 19:30:22,60.82,-115.8,35.6,74,75,6.93,shower rain,0.000,0
118,Iquitos,PE,2020-04-17 19:30:22,-3.75,-73.25,78.8,78,75,6.93,broken clouds,0.000,0
119,Chuy,UY,2020-04-17 19:30:22,-33.7,-53.46,64.63,77,9,6.46,clear sky,0.000,0
120,Sao Jose Da Coroa Grande,BR,2020-04-17 19:30:23,-8.9,-35.15,81.82,77,0,8.01,clear sky,0.000,0
121,Gobabis,NA,2020-04-17 19:30:24,-22.45,18.97,71.6,49,0,3.36,clear sky,0.000,0
122,Saint-Augustin,CA,2020-04-17 19:30:25,51.23,-58.65,29.52,94,100,11.61,light snow,0.000,0
123,Kalisz,PL,2020-04-17 19:30:26,51.76,18.09,42.01,51,0,8.12,clear sky,0.000,0
124,Strezhevoy,RU,2020-04-17 19:30:27,60.73,77.59,44.6,70,100,13.42,overcast clouds,0.000,0
125,Dustlik,UZ,2020-04-17 19:30:29,40.52,68.04,59.13,54,0,2.57,clear sky,0.000,0
126,Talcahuano,CL,2020-04-17 19:30:30,-36.72,-73.12,69.8,73,20,5.82,few clouds,0.000,0
127,Veere,NL,2020-04-17 19:30:32,51.55,3.67,57.2,62,99,12.75,overcast clouds,0.000,0
128,Victoria,HK,2020-04-17 19:30:02,22.29,114.16,73.0,78,100,8.01,overcast clouds,0.000,0
129,Pangnirtung,CA,2020-04-17 19:25:55,66.15,-65.71,6.8,77,90,11.41,light snow,0.000,0
130,Biak,ID,2020-04-17 19:30:33,-0.91,122.88,80.2,73,13,1.12,few clouds,0.000,0
131,Kiama,AU,2020-04-17 19:27:14,-34.68,150.87,57.2,58,0,13.87,clear sky,0.000,0
132,College Place,US,2020-04-17 19:30:33,46.05,-118.39,66.99,20,1,6.93,clear sky,0.000,0
133,Sorong,ID,2020-04-17 19:30:34,-0.88,131.25,76.89,87,16,0.76,light rain,0.860,0
134,Lompoc,US,2020-04-17 19:30:34,34.64,-120.46,61.0,72,90,9.17,overcast clouds,0.000,0
135,Jalu,LY,2020-04-17 19:30:35,29.03,21.55,69.51,26,0,6.78,clear sky,0.000,0
136,Llanes,ES,2020-04-17 19:30:35,43.42,-4.75,61.0,62,16,5.55,light rain,0.240,0
137,Evensk,RU,2020-04-17 19:30:36,61.95,159.23,13.78,89,10,7.99,clear sky,0.000,0
138,Aksu,CN,2020-04-17 19:30:38,41.12,80.26,55.33,45,100,5.14,light rain,0.140,0
139,Mayo,US,2020-04-17 19:30:39,38.89,-76.51,55.99,53,90,20.8,overcast clouds,0.000,0
140,Bonthe,SL,2020-04-17 19:30:41,7.53,-12.51,80.62,80,75,12.26,moderate rain,3.340,0
141,Yarmouth,US,2020-04-17 19:30:42,41.71,-70.23,48.2,39,40,24.16,scattered clouds,0.000,0
142,Cidreira,BR,2020-04-17 19:30:42,-30.18,-50.21,67.08,80,26,8.9,light rain,0.240,0
143,Punta Alta,AR,2020-04-17 19:27:47,-38.88,-62.07,79.12,36,7,19.26,clear sky,0.000,0
144,Nauchnyy Gorodok,RU,2020-04-17 19:30:43,53.42,83.52,46.4,42,0,6.71,clear sky,0.000,0
145,Lieksa,FI,2020-04-17 19:29:57,63.32,30.02,33.76,87,98,8.43,light snow,0.000,1
146,Carnarvon,AU,2020-04-17 19:30:45,-24.87,113.63,75.2,88,100,6.93,overcast clouds,0.000,0
147,Saskylakh,RU,2020-04-17 19:26:55,71.92,114.08,-2.92,87,8,6.08,clear sky,0.000,0
148,Makakilo City,US,2020-04-17 19:29:54,21.35,-158.09,80.6,57,20,3.36,few clouds,0.000,0
149,Jertih,MY,2020-04-17 19:30:47,5.73,102.49,82.4,78,20,4.7,few clouds,0.000,0
150,Margate,GB,2020-04-17 19:30:48,51.38,1.39,48.99,85,100,22.12,light rain,0.470,0
151,Airai,TL,2020-04-17 19:30:49,-8.93,125.41,61.2,73,23,2.3,light rain,0.130,0
152,Fare,PF,2020-04-17 19:29:13,-16.7,-151.02,83.75,65,83,6.13,broken clouds,0.000,0
153,Tiksi,RU,2020-04-17 19:30:50,71.69,128.87,1.65,86,100,4.34,overcast clouds,0.000,0
154,Chemax,MX,2020-04-17 19:30:51,20.65,-87.93,96.8,26,40,11.41,scattered clouds,0.000,0
155,Nanortalik,GL,2020-04-17 19:26:30,60.14,-45.24,29.86,92,100,19.28,light snow,0.000,0
156,Wamba,NG,2020-04-17 19:29:21,8.93,8.6,89.44,38,2,5.44,clear sky,0.000,0
157,Ust-Nera,RU,2020-04-17 19:30:53,64.57,143.2,-3.08,78,100,8.95,overcast clouds,0.000,0
158,Kavieng,PG,2020-04-17 19:30:13,-2.57,150.8,81.66,75,100,4.81,overcast clouds,0.000,0
159,Aklavik,CA,2020-04-17 19:30:55,68.22,-135.01,30.2,80,90,6.93,shower rain,0.000,0
160,Mildura,AU,2020-04-17 19:26:17,-34.2,142.15,51.8,81,0,3.36,clear sky,0.000,0
161,Minas,UY,2020-04-17 19:30:56,-34.38,-55.24,66.2,88,20,10.29,few clouds,0.000,0
162,Tabou,CI,2020-04-17 19:30:58,4.42,-7.35,80.85,87,95,11.05,moderate rain,4.850,0
163,Pisco,PE,2020-04-17 19:30:58,-13.7,-76.22,80.6,57,61,20.8,broken clouds,0.000,0
164,Lebedinyy,RU,2020-04-17 19:30:59,58.52,125.52,0.93,85,96,2.77,light snow,0.000,0
165,Komatipoort,ZA,2020-04-17 19:31:00,-25.43,31.95,66.99,92,7,2.01,clear sky,0.000,0
166,Ponta Do Sol,PT,2020-04-17 19:28:39,32.67,-17.1,63.0,62,41,5.99,light rain,0.640,0
167,Vanderhoof,CA,2020-04-17 19:31:01,54.02,-124.02,44.44,70,100,8.12,light rain,0.810,0
168,Correntina,BR,2020-04-17 19:31:02,-13.34,-44.64,74.62,72,5,4.97,clear sky,0.000,0
169,Mangan,IN,2020-04-17 19:31:02,27.52,88.53,66.79,43,100,3.83,moderate rain,4.340,0
170,Port Alfred,ZA,2020-04-17 19:26:06,-33.59,26.89,64.99,93,28,5.01,scattered clouds,0.000,0
171,Acapulco,MX,2020-04-17 19:31:03,16.86,-99.89,87.8,52,5,10.29,smoke,0.000,0
172,Oktyabrskoye,RU,2020-04-17 19:31:05,43.06,44.74,48.04,40,88,3.74,overcast clouds,0.000,0
173,Leo,BF,2020-04-17 19:31:05,11.1,-2.1,91.76,11,8,4.5,clear sky,0.000,0
174,Pangkalanbuun,ID,2020-04-17 19:31:05,-2.68,111.62,76.77,92,100,1.45,light rain,1.210,0
175,Hollola,FI,2020-04-17 19:31:06,61.05,25.43,37.0,73,97,3.0,overcast clouds,0.000,0
176,Vila Do Maio,CV,2020-04-17 19:31:08,15.13,-23.22,75.2,53,20,21.92,few clouds,0.000,0
177,Clyde River,CA,2020-04-17 19:31:09,70.47,-68.59,10.4,85,75,19.46,broken clouds,0.000,0
178,Batamshinskiy,KZ,2020-04-17 19:31:11,50.56,58.27,46.4,87,75,13.42,broken clouds,0.000,0
179,Kirakira,SB,2020-04-17 19:31:12,-10.45,161.92,80.71,78,99,3.44,light rain,2.000,0
180,San Andres,CO,2020-04-17 19:31:13,12.58,-81.7,87.8,58,20,13.87,few clouds,0.000,0
181,Hvide Sande,DK,2020-04-17 19:31:14,56.0,8.13,46.99,52,0,15.17,clear sky,0.000,0
182,Sunrise Manor,US,2020-04-17 19:29:23,36.21,-115.07,72.0,19,1,13.87,clear sky,0.000,0
183,San Jose Del Guaviare,CO,2020-04-17 19:31:18,2.57,-72.65,85.55,52,99,2.24,overcast clouds,0.000,0
184,Caravelas,BR,2020-04-17 19:31:19,-17.71,-39.25,78.57,85,81,15.32,light rain,0.930,0
185,Vao,NC,2020-04-17 19:31:20,-22.67,167.48,74.61,67,13,6.87,few clouds,0.000,0
186,Nouadhibou,MR,2020-04-17 19:31:21,20.93,-17.03,68.0,77,94,18.34,overcast clouds,0.000,0
187,Puerto Del Rosario,ES,2020-04-17 19:28:45,28.5,-13.86,69.8,68,40,2.24,scattered clouds,0.000,0
188,Kangaatsiaq,GL,2020-04-17 19:31:22,68.31,-53.46,29.23,90,55,12.01,broken clouds,0.000,0
189,Yellowknife,CA,2020-04-17 19:29:52,62.46,-114.35,26.6,63,75,13.87,broken clouds,0.000,0
190,Srivardhan,IN,2020-04-17 19:31:23,18.03,73.02,79.21,86,0,2.55,clear sky,0.000,0
191,Ossora,RU,2020-04-17 19:31:23,59.24,163.07,20.05,92,0,7.16,clear sky,0.000,0
192,Swift Current,CA,2020-04-17 19:31:24,50.28,-107.8,55.4,32,1,21.92,clear sky,0.000,0
193,Turkmenabat,TM,2020-04-17 19:31:25,39.07,63.58,59.0,67,0,2.24,clear sky,0.000,0
194,Filadelfia,US,2020-04-17 19:31:13,39.95,-75.16,53.01,34,90,9.17,overcast clouds,0.000,0
195,Ostrovnoy,RU,2020-04-17 19:31:26,68.05,39.51,32.34,96,100,14.47,light snow,0.000,1
196,Bafoulabe,ML,2020-04-17 19:31:27,13.81,-10.83,99.84,17,45,0.81,scattered clouds,0.000,0
197,Souillac,MU,2020-04-17 19:31:27,-20.52,57.52,77.0,78,40,11.41,scattered clouds,0.000,0
198,Dunedin,NZ,2020-04-17 19:28:00,-45.87,170.5,51.01,95,100,4.0,light rain,0.000,0
199,Fortuna,US,2020-04-17 19:31:30,40.6,-124.16,55.0,100,90,10.29,overcast clouds,0.000,0
200,Talnakh,RU,2020-04-17 19:31:31,69.49,88.4,28.4,79,95,24.61,overcast clouds,0.000,0
201,Tuatapere,NZ,2020-04-17 19:27:11,-46.13,167.68,50.0,91,99,7.0,overcast clouds,0.000,0
202,Esperance,AU,2020-04-17 19:27:57,-33.87,121.9,59.0,72,53,17.22,broken clouds,0.000,0
203,Kruisfontein,ZA,2020-04-17 19:26:49,-34.0,24.73,56.73,85,42,3.0,scattered clouds,0.000,0
204,Khandyga,RU,2020-04-17 19:31:33,62.67,135.6,-2.15,87,85,1.57,overcast clouds,0.000,0
205,Templemore,IE,2020-04-17 19:31:34,52.79,-7.83,50.0,91,100,9.15,light rain,0.860,0
206,Hamilton,US,2020-04-17 19:31:35,39.18,-84.53,53.6,76,90,10.29,light rain,0.000,0
207,Beira,MZ,2020-04-17 19:31:36,-19.84,34.84,80.6,83,40,10.29,scattered clouds,0.000,0
208,Porto Novo,BJ,2020-04-17 19:31:36,6.5,2.6,84.2,89,40,12.75,scattered clouds,0.000,0
209,Tilichiki,RU,2020-04-17 19:31:37,60.47,166.1,11.12,92,0,9.91,clear sky,0.000,0
210,Vestmannaeyjar,IS,2020-04-17 19:28:37,63.44,-20.27,44.6,81,90,16.11,overcast clouds,0.000,0
211,Chalus,IR,2020-04-17 19:29:03,36.66,51.42,55.4,87,90,2.57,overcast clouds,0.000,0
212,Marawi,PH,2020-04-17 19:31:41,8.0,124.29,65.53,65,1,4.5,clear sky,0.000,0
213,Las Vegas,US,2020-04-17 19:28:21,36.17,-115.14,72.0,18,1,9.17,clear sky,0.000,0
214,Moba,CN,2020-04-17 19:31:42,33.23,105.02,43.18,47,100,2.44,overcast clouds,0.000,0
215,Zhangye,CN,2020-04-17 19:31:43,38.93,100.45,45.99,39,66,3.22,broken clouds,0.000,0
216,Roald,NO,2020-04-17 19:27:39,62.58,6.13,39.99,64,53,5.82,broken clouds,0.000,0
217,Henties Bay,NA,2020-04-17 19:28:30,-22.12,14.28,59.0,90,3,5.01,clear sky,0.000,0
218,Lethem,GY,2020-04-17 19:31:46,3.38,-59.8,94.75,35,90,4.38,overcast clouds,0.000,0
219,Igarka,RU,2020-04-17 19:31:46,67.47,86.58,33.91,96,100,13.06,overcast clouds,0.000,0
220,Laguna,US,2020-04-17 19:31:27,38.42,-121.42,68.0,59,1,12.75,clear sky,0.000,0
221,Saldanha,ZA,2020-04-17 19:31:49,-33.01,17.94,62.6,67,19,11.41,few clouds,0.000,0
222,Honningsvag,NO,2020-04-17 19:31:50,70.98,25.97,37.27,82,99,23.82,light snow,0.000,0
223,Georgetown,MY,2020-04-17 19:31:14,5.41,100.34,80.6,88,20,3.36,few clouds,0.000,0
224,Atasu,KZ,2020-04-17 19:31:52,48.68,71.64,45.41,46,0,1.83,clear sky,0.000,0
225,Santa Rosalia,MX,2020-04-17 19:31:53,27.32,-112.28,78.58,23,0,2.15,clear sky,0.000,0
226,Lepley,RU,2020-04-17 19:31:53,54.31,42.86,36.81,84,97,6.31,overcast clouds,0.000,0
227,Broome,US,2020-04-17 19:31:53,42.25,-75.83,39.99,47,90,10.29,overcast clouds,0.000,0
228,Jardanhaza,HU,2020-04-17 19:31:54,48.15,20.25,50.72,79,16,2.62,few clouds,0.000,0
229,Santa Catalina,PH,2020-04-17 19:31:54,9.33,122.86,84.2,74,40,4.7,scattered clouds,0.000,0
230,Bonavista,CA,2020-04-17 19:31:54,48.65,-53.11,37.0,50,92,10.0,light snow,0.000,0
231,Galanta,SK,2020-04-17 19:31:55,48.19,17.73,64.99,39,53,4.7,light rain,0.230,0
232,Gravdal,NO,2020-04-17 19:31:56,68.12,13.5,34.21,93,98,11.27,overcast clouds,0.000,0
233,Sao Felix Do Xingu,BR,2020-04-17 19:31:57,-6.64,-51.99,71.38,91,100,1.9,light rain,2.080,0
234,Thompson,CA,2020-04-17 19:31:57,55.74,-97.86,41.0,44,90,13.87,overcast clouds,0.000,0
235,Longyearbyen,SJ,2020-04-17 19:31:57,78.22,15.64,33.8,64,75,8.05,broken clouds,0.000,0
236,Harrison,US,2020-04-17 19:30:06,30.41,-89.04,78.8,69,90,17.22,overcast clouds,0.000,0
237,Erzin,TR,2020-04-17 19:31:04,36.96,36.2,69.01,63,0,3.36,clear sky,0.000,0
238,Churapcha,RU,2020-04-17 19:31:59,62.0,132.43,1.08,86,94,6.8,overcast clouds,0.000,0
239,Kaihua,CN,2020-04-17 19:31:59,23.37,104.28,62.06,58,86,5.19,light rain,0.960,0
240,Baruun-Urt,MN,2020-04-17 19:31:59,46.68,113.28,44.55,33,62,10.69,broken clouds,0.000,0
241,Necochea,AR,2020-04-17 19:32:00,-38.55,-58.74,79.0,50,45,13.0,scattered clouds,0.000,0
242,Banda Aceh,ID,2020-04-17 19:32:00,5.56,95.32,79.63,78,100,1.54,overcast clouds,0.000,0
243,Pevek,RU,2020-04-17 19:27:39,69.7,170.31,1.51,92,38,7.25,scattered clouds,0.000,0
244,Ngaoundere,CM,2020-04-17 19:32:00,7.32,13.58,73.42,22,0,3.36,clear sky,0.000,0
245,Erdemli,TR,2020-04-17 19:32:01,36.6,34.31,67.93,53,0,5.19,clear sky,0.000,0
246,Wewak,PG,2020-04-17 19:32:01,-3.55,143.63,78.04,81,96,3.69,overcast clouds,0.000,0
247,Palmer,US,2020-04-17 19:32:02,42.16,-72.33,50.0,25,75,17.22,broken clouds,0.000,0
248,Opuwo,NA,2020-04-17 19:32:02,-18.06,13.84,74.5,26,67,3.0,broken clouds,0.000,0
249,Tokur,RU,2020-04-17 19:32:03,53.13,132.9,24.76,88,96,4.85,light snow,0.000,0
250,Skorodnoye,RU,2020-04-17 19:32:04,51.07,37.23,41.0,56,40,4.47,scattered clouds,0.000,0
251,Raga,SS,2020-04-17 19:32:04,8.46,25.68,78.93,13,37,2.68,scattered clouds,0.000,0
252,Galveston,US,2020-04-17 19:32:04,29.37,-94.97,79.0,78,90,11.41,overcast clouds,0.000,0
253,Talakan,RU,2020-04-17 19:32:04,50.32,130.37,39.9,63,58,3.85,broken clouds,0.000,0
254,Kirkwall,GB,2020-04-17 19:28:00,58.98,-2.96,42.8,75,0,10.29,clear sky,0.000,0
255,Dikson,RU,2020-04-17 19:32:05,73.51,80.55,9.84,94,27,8.05,scattered clouds,0.000,0
256,Beloha,MG,2020-04-17 19:28:10,-25.17,45.05,74.88,62,2,6.44,clear sky,0.000,0
257,Krivosheino,RU,2020-04-17 19:32:05,57.34,83.93,34.95,85,62,6.46,broken clouds,0.000,0
258,Crotone,IT,2020-04-17 19:32:06,39.09,17.12,57.07,72,0,2.48,clear sky,0.000,0
259,Beringovskiy,RU,2020-04-17 19:32:06,63.05,179.32,18.72,96,100,20.27,light snow,0.000,0
260,Calbuco,CL,2020-04-17 19:32:06,-41.77,-73.13,60.8,93,90,18.34,light intensity shower rain,0.000,0
261,Kahului,US,2020-04-17 19:32:06,20.89,-156.47,78.8,57,20,17.22,few clouds,0.000,0
262,Pacific Grove,US,2020-04-17 19:31:51,36.62,-121.92,57.99,71,90,13.87,overcast clouds,0.000,0
263,Campoverde,PE,2020-04-17 19:32:07,-8.48,-74.81,82.4,51,75,10.29,broken clouds,0.000,0
264,Leeds,GB,2020-04-17 19:32:07,53.8,-1.55,46.0,78,12,1.99,few clouds,0.000,0
265,Scarborough,GB,2020-04-17 19:32:07,54.28,-0.4,43.0,72,2,3.0,clear sky,0.000,0
266,Husavik,IS,2020-04-17 19:32:08,66.04,-17.34,48.2,61,34,31.09,scattered clouds,0.000,0
267,Rio Grande,BR,2020-04-17 19:30:14,-32.03,-52.1,73.4,56,40,11.41,scattered clouds,0.000,0
268,Touros,BR,2020-04-17 19:32:08,-5.2,-35.46,84.2,74,40,11.41,scattered clouds,0.000,0
269,Upernavik,GL,2020-04-17 19:32:08,72.79,-56.15,23.65,91,0,1.74,clear sky,0.000,0
270,Takestan,IR,2020-04-17 19:32:09,36.07,49.7,48.2,81,59,6.93,light rain,0.860,0
271,Fort Nelson,CA,2020-04-17 19:28:28,58.81,-122.7,42.8,56,90,10.29,overcast clouds,0.000,0
272,Acajutla,SV,2020-04-17 19:32:09,13.59,-89.83,87.01,67,0,6.71,clear sky,0.000,0
273,Soria,ES,2020-04-17 19:32:09,41.67,-2.67,53.01,70,90,1.01,light rain,0.580,0
274,Mount Gambier,AU,2020-04-17 19:28:49,-37.83,140.77,51.8,93,90,6.93,overcast clouds,0.000,0
275,Bandarbeyla,SO,2020-04-17 19:32:10,9.49,50.81,81.41,76,39,9.53,light rain,0.260,0
276,Saint George,US,2020-04-17 19:29:51,37.1,-113.58,66.0,25,1,4.7,clear sky,0.000,0
277,Acarau,BR,2020-04-17 19:32:11,-2.89,-40.12,78.06,87,82,4.0,light rain,0.720,0
278,Pedernales,DO,2020-04-17 19:32:11,18.04,-71.74,89.6,49,20,18.34,few clouds,0.000,0
279,Abong Mbang,CM,2020-04-17 19:32:12,3.98,13.18,72.48,75,95,4.61,light rain,0.260,0
280,Rawlins,US,2020-04-17 19:32:12,41.79,-107.24,35.6,55,90,25.28,overcast clouds,0.000,0
281,San Quintin,MX,2020-04-17 19:32:12,30.48,-115.95,63.68,63,22,12.86,few clouds,0.000,0
282,Puno,PE,2020-04-17 19:32:12,-15.83,-70.03,51.8,62,75,10.29,broken clouds,0.000,0
283,Constitucion,CL,2020-04-17 19:32:01,-35.33,-72.42,66.6,60,100,11.59,overcast clouds,0.000,0
284,Salalah,OM,2020-04-17 19:32:13,17.02,54.09,82.4,74,20,4.7,few clouds,0.000,0
285,Mackay,AU,2020-04-17 19:32:13,-21.15,149.2,73.0,94,15,3.36,few clouds,0.000,0
286,Svetlaya,RU,2020-04-17 19:32:13,46.54,138.33,39.58,73,83,8.68,broken clouds,0.000,0
287,Waren,DE,2020-04-17 19:32:13,53.52,12.68,48.2,45,20,9.17,few clouds,0.000,0
288,Udachnyy,RU,2020-04-17 19:27:35,66.42,112.4,3.2,59,2,6.71,clear sky,0.000,0
289,Pimentel,PE,2020-04-17 19:32:14,-6.84,-79.93,82.4,54,0,23.04,clear sky,0.000,0
290,Cap-Aux-Meules,CA,2020-04-17 19:32:14,47.38,-61.86,39.2,44,40,18.34,scattered clouds,0.000,0
291,Ryotsu,JP,2020-04-17 19:32:15,38.08,138.43,50.0,81,100,1.12,light rain,0.000,0
292,Grand Forks,US,2020-04-17 19:32:16,47.93,-97.03,50.0,34,75,17.22,broken clouds,0.000,0
293,Griffith,US,2020-04-17 19:32:17,41.53,-87.42,37.4,89,90,10.29,moderate rain,0.000,0
294,Ayan,RU,2020-04-17 19:32:17,56.45,138.17,17.71,84,37,11.05,scattered clouds,0.000,0
295,Klaksvik,FO,2020-04-17 19:32:17,62.23,-6.59,44.6,65,33,2.24,scattered clouds,0.000,0
296,Zhigansk,RU,2020-04-17 19:32:17,66.77,123.37,-8.23,88,0,13.76,clear sky,0.000,0
297,Villa Carlos Paz,AR,2020-04-17 19:32:18,-31.42,-64.5,82.99,34,0,16.11,clear sky,0.000,0
298,Horsham,GB,2020-04-17 19:32:19,51.06,-0.33,48.99,87,20,14.99,few clouds,0.000,0
299,Harper,LR,2020-04-17 19:32:19,4.38,-7.72,81.41,85,92,11.05,moderate rain,4.150,0
300,Jizan,SA,2020-04-17 19:32:20,17.33,42.67,86.0,66,0,3.36,clear sky,0.000,0
301,Vestmanna,FO,2020-04-17 19:32:20,62.16,-7.17,44.6,65,37,2.24,scattered clouds,0.000,0
302,Kodiak,US,2020-04-17 19:29:26,57.79,-152.41,44.6,93,90,9.17,overcast clouds,0.000,0
303,Safita,SY,2020-04-17 19:32:20,34.82,36.12,61.0,88,0,1.57,clear sky,0.000,0
304,Sakhnovshchyna,UA,2020-04-17 19:32:21,49.15,35.87,42.04,60,0,6.24,clear sky,0.000,0
305,Toamasina,MG,2020-04-17 19:32:21,-18.17,49.38,75.2,94,75,2.24,shower rain,0.000,0
306,Kiunga,PG,2020-04-17 19:32:21,-6.12,141.29,72.66,96,75,1.23,broken clouds,0.000,0
307,Paciran,ID,2020-04-17 19:32:21,-6.88,112.38,79.18,86,73,2.71,broken clouds,0.000,0
308,Bengkulu,ID,2020-04-17 19:32:23,-3.8,102.27,77.14,83,67,4.14,moderate rain,3.820,0
309,Sambava,MG,2020-04-17 19:32:23,-14.27,50.17,74.35,87,61,7.99,light rain,1.650,0
310,Inirida,CO,2020-04-17 19:32:23,3.87,-67.92,87.44,56,29,3.2,scattered clouds,0.000,0
311,Krasnyy Chikoy,RU,2020-04-17 19:32:24,50.36,108.75,41.31,61,100,5.32,light rain,0.210,0
312,Westport,US,2020-04-17 19:32:24,41.14,-73.36,50.0,37,20,20.8,few clouds,0.000,0
313,Takoradi,GH,2020-04-17 19:32:24,4.88,-1.76,82.04,84,87,9.86,light rain,1.100,0
314,Dhidhdhoo,MV,2020-04-17 19:32:24,6.88,73.1,85.28,69,59,5.32,broken clouds,0.000,0
315,Luganville,VU,2020-04-17 19:32:25,-15.53,167.17,73.4,100,75,5.41,broken clouds,0.000,0
316,Rundu,NA,2020-04-17 19:32:25,-17.93,19.77,78.8,50,66,3.36,broken clouds,0.000,0
317,Shache,CN,2020-04-17 19:32:25,38.42,77.24,53.06,59,100,8.08,moderate rain,3.710,0
318,Cherskiy,RU,2020-04-17 19:32:25,68.75,161.3,3.63,90,16,5.46,few clouds,0.000,0
319,Belyy Yar,RU,2020-04-17 19:32:25,53.6,91.39,32.0,71,8,6.71,clear sky,0.000,0
320,Lewiston,US,2020-04-17 19:32:27,44.1,-70.21,46.99,30,40,10.29,scattered clouds,0.000,0
321,Nelson Bay,AU,2020-04-17 19:28:18,-32.72,152.15,55.99,71,88,9.17,overcast clouds,0.000,0
322,Kisiwani,TZ,2020-04-17 19:32:27,-4.13,37.95,71.56,75,91,3.33,overcast clouds,0.000,0
323,Mexico,PH,2020-04-17 19:32:28,15.06,120.72,81.0,78,75,4.7,broken clouds,0.000,0
324,Ixtapa,MX,2020-04-17 19:32:28,20.7,-105.2,81.0,47,40,9.17,scattered clouds,0.000,0
325,Mandalgovi,MN,2020-04-17 19:32:28,45.76,106.27,45.93,28,100,9.55,overcast clouds,0.000,0
326,Srednekolymsk,RU,2020-04-17 19:32:28,67.45,153.68,-1.79,91,99,10.54,light snow,0.000,0
327,Dakar,SN,2020-04-17 19:32:29,14.69,-17.44,73.4,83,12,18.34,few clouds,0.000,0
328,Dovbysh,UA,2020-04-17 19:32:29,50.37,27.99,39.31,66,15,7.38,few clouds,0.000,0
329,Lesnoye,RU,2020-04-17 19:32:31,58.28,35.52,32.0,91,89,7.92,overcast clouds,0.000,0
330,Banjar,ID,2020-04-17 19:32:31,-8.19,114.97,80.6,94,20,2.24,few clouds,0.000,0
331,Krasnoyarka,RU,2020-04-17 19:32:31,55.33,73.12,51.8,40,97,8.95,overcast clouds,0.000,0
332,Mayumba,GA,2020-04-17 19:32:31,-3.43,10.66,78.91,85,99,8.3,overcast clouds,0.000,0
333,Rocha,UY,2020-04-17 19:28:33,-34.48,-54.33,69.91,60,36,4.83,scattered clouds,0.000,0
334,Mingshui,CN,2020-04-17 19:32:32,36.72,117.5,59.0,56,44,4.12,scattered clouds,0.000,0
335,Luangwa,ZM,2020-04-17 19:32:32,-15.62,30.42,78.1,51,30,4.65,scattered clouds,0.000,0
336,Road Town,VG,2020-04-17 19:29:19,18.42,-64.62,84.2,70,40,9.17,scattered clouds,0.000,0
337,Casino,AU,2020-04-17 19:32:33,-28.87,153.05,69.01,87,94,4.7,overcast clouds,0.000,0
338,Turukhansk,RU,2020-04-17 19:32:33,65.82,87.98,35.38,88,97,9.69,overcast clouds,0.000,0
339,Avera,US,2020-04-17 19:32:33,33.19,-82.53,75.2,36,1,9.17,clear sky,0.000,0
340,Urumqi,CN,2020-04-17 19:32:33,43.8,87.6,55.4,58,98,4.47,overcast clouds,0.000,0
341,Sinnamary,GF,2020-04-17 19:32:33,5.38,-52.95,81.32,80,69,13.0,light rain,2.480,0
342,Xacmaz,AZ,2020-04-17 19:32:34,41.46,48.81,49.19,76,85,6.17,overcast clouds,0.000,0
343,Amga,RU,2020-04-17 19:32:34,60.9,131.96,6.6,89,97,5.61,overcast clouds,0.000,0
344,Sinalunga,IT,2020-04-17 19:32:35,43.22,11.75,59.0,79,49,5.99,scattered clouds,0.000,0
345,Lagoa,PT,2020-04-17 19:32:35,39.05,-27.98,60.17,70,4,7.2,clear sky,0.000,0
346,Tuktoyaktuk,CA,2020-04-17 19:32:36,69.45,-133.04,15.8,85,90,8.05,overcast clouds,0.000,0
347,Agboville,CI,2020-04-17 19:32:36,5.93,-4.21,80.38,86,88,5.73,overcast clouds,0.000,0
348,Vardo,NO,2020-04-17 19:28:41,70.37,31.11,35.6,93,75,20.8,light rain,0.000,0
349,Vorukh,TJ,2020-04-17 19:32:37,39.85,70.58,46.4,33,98,0.36,overcast clouds,0.000,0
350,Mahibadhoo,MV,2020-04-17 19:32:37,3.78,72.97,84.94,73,59,9.53,light rain,1.030,0
351,Geraldton,AU,2020-04-17 19:32:20,-28.77,114.6,69.8,83,40,5.82,scattered clouds,0.000,0
352,Ust-Kut,RU,2020-04-17 19:32:38,56.79,105.77,25.81,92,100,9.33,snow,0.000,2
353,Puerto Baquerizo Moreno,EC,2020-04-17 19:32:38,-0.9,-89.6,79.0,81,49,10.89,light rain,0.430,0
354,Vangaindrano,MG,2020-04-17 19:32:38,-23.35,47.6,70.7,84,29,2.1,scattered clouds,0.000,0
355,Xuanhua,CN,2020-04-17 19:32:38,40.61,115.04,48.63,39,76,0.76,broken clouds,0.000,0
356,Diego De Almagro,CL,2020-04-17 19:32:39,-26.37,-70.05,79.59,19,0,11.34,clear sky,0.000,0
357,Tual,ID,2020-04-17 19:32:39,-5.67,132.75,83.37,78,63,9.01,light rain,0.360,0
358,Linkoping,SE,2020-04-17 19:32:43,58.41,15.62,44.6,39,41,5.82,scattered clouds,0.000,0
359,Hasaki,JP,2020-04-17 19:32:43,35.73,140.83,55.4,93,75,9.17,light intensity shower rain,0.000,0
360,Kendari,ID,2020-04-17 19:32:43,-3.94,122.5,75.67,89,3,2.15,clear sky,0.000,0
361,Marienburg,PL,2020-04-17 19:32:44,54.04,19.03,37.99,66,1,1.9,clear sky,0.000,0
362,Sur,OM,2020-04-17 19:32:44,22.57,59.53,80.64,63,0,2.66,clear sky,0.000,0
363,Garissa,KE,2020-04-17 19:32:45,-0.45,39.64,81.88,71,95,14.81,light rain,0.130,0
364,Chapais,CA,2020-04-17 19:32:45,49.78,-74.85,28.4,58,90,16.11,light snow,0.000,0
365,Belaya Gora,RU,2020-04-17 19:32:46,68.53,146.42,-9.9,89,99,7.81,overcast clouds,0.000,0
366,Kalavad,IN,2020-04-17 19:32:46,22.22,70.38,86.0,57,0,7.34,clear sky,0.000,0
367,Uchiza,PE,2020-04-17 19:32:46,-8.46,-76.46,77.23,53,65,2.37,light rain,0.230,0
368,Ahipara,NZ,2020-04-17 19:32:47,-35.17,173.17,67.41,85,39,21.03,light rain,1.000,0
369,Natal,BR,2020-04-17 19:32:37,-5.79,-35.21,86.0,74,40,11.41,scattered clouds,0.000,0
370,Lorengau,PG,2020-04-17 19:32:48,-2.02,147.27,81.95,75,77,3.74,broken clouds,0.000,0
371,Yambio,SS,2020-04-17 19:32:48,4.57,28.4,73.8,63,99,6.46,overcast clouds,0.000,0
372,Abu Dhabi,AE,2020-04-17 19:32:04,24.47,54.37,77.0,78,0,4.7,clear sky,0.000,0
373,Solginskiy,RU,2020-04-17 19:32:49,61.05,41.34,28.53,97,100,5.17,overcast clouds,0.000,0
374,Sangar,RU,2020-04-17 19:32:49,63.92,127.47,1.49,81,1,1.66,clear sky,0.000,0
375,Sao Miguel Do Araguaia,BR,2020-04-17 19:32:50,-13.28,-50.16,77.49,80,40,1.59,light rain,1.140,0
376,Lazaro Cardenas,MX,2020-04-17 19:32:50,17.96,-102.2,87.48,42,98,9.95,overcast clouds,0.000,0
377,Florenville,BE,2020-04-17 19:32:50,49.7,5.31,61.0,66,100,1.43,light rain,0.950,0
378,Norman Wells,CA,2020-04-17 19:32:50,65.28,-126.83,33.8,74,75,12.75,broken clouds,0.000,0
379,Dalton,US,2020-04-17 19:29:35,34.77,-84.97,73.4,25,1,10.29,clear sky,0.000,0
380,Lulea,SE,2020-04-17 19:32:52,65.58,22.15,39.2,60,40,16.11,scattered clouds,0.000,0
381,Pajan,EC,2020-04-17 19:32:52,-1.57,-80.42,84.85,64,85,4.63,light rain,2.270,0
382,Torbay,CA,2020-04-17 19:32:53,47.67,-52.73,39.0,51,75,4.7,broken clouds,0.000,0
383,Najran,SA,2020-04-17 19:32:13,17.49,44.13,78.8,47,40,11.41,scattered clouds,0.000,0
384,Batemans Bay,AU,2020-04-17 19:32:53,-35.72,150.18,50.0,100,0,4.56,clear sky,0.000,0
385,Richards Bay,ZA,2020-04-17 19:32:44,-28.78,32.04,69.62,78,0,8.3,clear sky,0.000,0
386,Khandela,IN,2020-04-17 19:32:54,27.6,75.5,75.16,27,0,3.8,clear sky,0.000,0
387,Kaitangata,NZ,2020-04-17 19:32:54,-46.28,169.85,52.0,83,100,28.01,overcast clouds,0.000,0
388,Coihaique,CL,2020-04-17 19:32:55,-45.58,-72.07,59.0,54,75,4.7,broken clouds,0.000,0
389,Kasane,BW,2020-04-17 19:32:55,-17.82,25.15,73.4,78,28,5.82,scattered clouds,0.000,0
390,Sorland,NO,2020-04-17 19:32:55,67.67,12.69,34.48,96,100,9.46,light snow,0.000,0
391,Grand-Santi,GF,2020-04-17 19:32:56,4.25,-54.38,77.36,90,100,3.96,moderate rain,3.940,0
392,Oranjemund,NA,2020-04-17 19:32:56,-28.55,16.43,58.15,89,76,5.99,broken clouds,0.000,0
393,Matara,LK,2020-04-17 19:29:49,5.95,80.54,80.15,84,15,4.52,light rain,0.180,0
394,Sosnovo-Ozerskoye,RU,2020-04-17 19:32:57,52.52,111.54,39.74,46,100,5.17,light rain,0.110,0
395,Yakymivka,UA,2020-04-17 19:32:57,46.69,35.15,51.75,67,100,5.06,overcast clouds,0.000,0
396,Naze,JP,2020-04-17 19:32:06,28.37,129.48,69.8,83,75,12.75,broken clouds,0.000,0
397,Sumenep,ID,2020-04-17 19:32:57,-7.02,113.87,81.41,80,93,5.35,overcast clouds,0.000,0
398,Katangli,RU,2020-04-17 19:32:58,51.71,143.23,30.67,97,62,7.47,broken clouds,0.000,0
399,Arlit,NE,2020-04-17 19:32:58,18.74,7.39,91.09,9,0,6.24,clear sky,0.000,0
400,Banff,CA,2020-04-17 19:30:17,51.18,-115.57,40.39,45,100,4.18,overcast clouds,0.000,0
401,Sao Joao Da Barra,BR,2020-04-17 19:32:59,-21.64,-41.05,78.8,69,75,11.41,broken clouds,0.000,0
402,Gambela,ET,2020-04-17 19:32:59,8.25,34.58,83.3,33,61,3.02,broken clouds,0.000,0
403,Haines Junction,CA,2020-04-17 19:32:59,60.75,-137.51,41.23,61,98,2.84,overcast clouds,0.000,0
404,Nynashamn,SE,2020-04-17 19:32:59,58.9,17.95,44.01,41,85,5.14,overcast clouds,0.000,0
405,Nantucket,US,2020-04-17 19:33:00,41.28,-70.1,46.99,42,1,24.16,clear sky,0.000,0
406,Kupang,ID,2020-04-17 19:33:00,-10.17,123.58,81.14,79,5,11.03,clear sky,0.000,0
407,Pontianak,ID,2020-04-17 19:33:00,-0.03,109.33,78.17,87,100,3.42,light rain,1.840,0
408,Teya,RU,2020-04-17 19:33:00,60.38,92.63,30.09,93,18,0.29,few clouds,0.000,0
409,Ngunguru,NZ,2020-04-17 19:33:01,-35.62,174.5,61.0,97,61,1.01,broken clouds,0.000,0
410,Tiznit,MA,2020-04-17 19:33:01,29.58,-9.5,58.87,60,55,4.36,broken clouds,0.000,0
411,Santa Vitoria Do Palmar,BR,2020-04-17 19:33:01,-33.52,-53.37,64.98,75,11,7.31,few clouds,0.000,0
412,Botro,CI,2020-04-17 19:33:01,7.85,-5.31,84.2,79,20,6.93,few clouds,0.000,0
413,Tahta,EG,2020-04-17 19:33:02,26.77,31.5,75.2,36,59,16.11,broken clouds,0.000,0
414,Kalaswala,PK,2020-04-17 19:33:02,32.2,74.65,64.4,82,40,6.38,moderate rain,0.000,0
415,Yumen,CN,2020-04-17 19:28:36,40.28,97.2,47.23,29,94,6.13,overcast clouds,0.000,0
416,Gondar,ET,2020-04-17 19:33:02,12.6,37.47,68.25,12,36,5.82,scattered clouds,0.000,0
417,Altay,CN,2020-04-17 19:33:03,47.87,88.12,43.05,39,10,3.87,clear sky,0.000,0
418,Meulaboh,ID,2020-04-17 19:33:03,4.14,96.13,78.75,79,100,6.53,overcast clouds,0.000,0
419,Port Lincoln,AU,2020-04-17 19:33:03,-34.73,135.87,59.67,71,100,5.97,light rain,0.300,0
420,Mehamn,NO,2020-04-17 19:33:04,71.04,27.85,35.2,86,100,20.36,light snow,0.000,0
421,Okhotsk,RU,2020-04-17 19:33:04,59.38,143.3,15.33,94,74,11.05,broken clouds,0.000,0
422,Novaya Igirma,RU,2020-04-17 19:33:04,57.13,103.91,26.46,92,99,9.4,light snow,0.000,0
423,Gushikawa,JP,2020-04-17 19:33:04,26.35,127.87,69.8,77,1,7.63,clear sky,0.000,0
424,Paita,PE,2020-04-17 19:33:05,-5.09,-81.11,87.8,58,0,17.22,clear sky,0.000,0
425,Szomod,HU,2020-04-17 19:33:05,47.68,18.34,60.8,51,44,2.24,light rain,0.110,0
426,Panaba,MX,2020-04-17 19:33:06,21.28,-88.27,97.5,32,0,9.98,clear sky,0.000,0
427,Ilulissat,GL,2020-04-17 19:33:07,69.22,-51.1,30.2,63,75,9.17,broken clouds,0.000,0
428,Sawakin,SD,2020-04-17 19:33:07,19.11,37.33,76.24,53,0,0.11,clear sky,0.000,0
429,Lashio,MM,2020-04-17 19:33:07,22.93,97.75,65.1,63,97,0.83,overcast clouds,0.000,0
430,Yaan,NG,2020-04-17 19:33:08,7.38,8.57,85.23,61,59,12.28,broken clouds,0.000,0
431,Kinwat,IN,2020-04-17 19:33:08,19.63,78.2,86.58,20,66,3.83,broken clouds,0.000,0
432,Shagonar,RU,2020-04-17 19:33:08,51.53,92.8,39.09,59,57,8.79,broken clouds,0.000,0
433,San Patricio,MX,2020-04-17 19:33:08,19.22,-104.7,82.4,74,5,11.41,clear sky,0.000,0
434,Garoua Boulai,CM,2020-04-17 19:33:09,5.88,14.55,70.7,63,32,2.48,scattered clouds,0.000,0
435,Ekhabi,RU,2020-04-17 19:33:09,53.51,142.97,25.02,97,100,15.9,light snow,0.000,1
436,Borova,UA,2020-04-17 19:33:09,50.18,30.1,46.99,52,40,6.71,smoke,0.000,0
437,Witbank,ZA,2020-04-17 19:33:09,-25.87,29.23,57.31,41,14,4.25,few clouds,0.000,0
438,Lovozero,RU,2020-04-17 19:33:10,68.0,35.01,30.81,95,100,11.03,light snow,0.000,0
439,Port Keats,AU,2020-04-17 19:33:10,-14.25,129.55,81.72,75,21,0.49,few clouds,0.000,0
440,Akyab,MM,2020-04-17 19:33:10,20.15,92.9,76.12,82,25,3.06,scattered clouds,0.000,0
441,Narsaq,GL,2020-04-17 19:33:11,60.92,-46.05,30.2,68,75,12.75,broken clouds,0.000,0
442,Logansport,US,2020-04-17 19:33:11,40.75,-86.36,37.4,100,90,6.93,light intensity drizzle,0.000,0
443,Walvis Bay,NA,2020-04-17 19:33:11,-22.96,14.51,59.0,87,1,5.82,clear sky,0.000,0
444,Chimbote,PE,2020-04-17 19:33:12,-9.09,-78.58,76.68,68,3,12.91,clear sky,0.000,0
445,Menasha,US,2020-04-17 19:33:13,44.2,-88.45,48.99,22,75,4.7,broken clouds,0.000,0
446,Kudahuvadhoo,MV,2020-04-17 19:33:14,2.67,72.89,84.97,72,24,8.39,light rain,0.560,0
447,Port Augusta,AU,2020-04-17 19:33:14,-32.5,137.77,50.0,87,0,6.93,clear sky,0.000,0
448,Uyemskiy,RU,2020-04-17 19:33:16,64.47,40.85,32.0,97,90,2.24,overcast clouds,0.000,0
449,Lobatse,BW,2020-04-17 19:33:17,-25.22,25.67,59.0,62,36,4.7,scattered clouds,0.000,0
450,Balsas,BR,2020-04-17 19:33:18,-7.53,-46.04,78.76,79,77,2.93,light rain,2.960,0
451,Portland,US,2020-04-17 19:32:54,45.52,-122.68,71.01,29,1,2.33,clear sky,0.000,0
452,Cururupu,BR,2020-04-17 19:33:19,-1.83,-44.87,75.85,94,100,6.53,light rain,1.960,0
453,Ballina,AU,2020-04-17 19:28:47,-28.87,153.57,69.8,100,31,5.82,light rain,0.200,0
454,Kutum,SD,2020-04-17 19:33:21,14.2,24.67,68.4,14,24,9.35,few clouds,0.000,0
455,Morant Bay,JM,2020-04-17 19:33:22,17.88,-76.41,86.0,70,20,18.34,few clouds,0.000,0
456,Nadym,RU,2020-04-17 19:33:22,65.53,72.52,37.98,91,100,21.5,overcast clouds,0.000,0
457,Viedma,AR,2020-04-17 19:33:23,-40.81,-63.0,83.21,28,53,15.52,broken clouds,0.000,0
458,Samaipata,BO,2020-04-17 19:33:23,-18.15,-63.87,62.89,31,68,4.47,broken clouds,0.000,0
459,Grand Bank,CA,2020-04-17 19:33:23,47.1,-55.77,39.2,38,20,12.75,few clouds,0.000,0
460,Blagoyevo,RU,2020-04-17 19:33:23,63.37,47.92,33.76,94,100,4.45,light snow,0.000,0
461,Aripuana,BR,2020-04-17 19:33:24,-9.17,-60.63,79.18,91,74,2.08,moderate rain,3.710,0
462,Zheleznodorozhnyy,RU,2020-04-17 19:33:24,55.75,38.0,41.0,82,67,6.71,broken clouds,0.000,0
463,Namibe,AO,2020-04-17 19:32:06,-15.2,12.15,73.71,66,33,5.95,scattered clouds,0.000,0
464,Coos Bay,US,2020-04-17 19:32:17,43.37,-124.22,73.99,67,1,17.22,clear sky,0.000,0
465,The Valley,AI,2020-04-17 19:33:05,18.22,-63.06,86.0,65,40,11.41,scattered clouds,0.000,0
466,Khorixas,NA,2020-04-17 19:33:26,-20.37,14.97,70.95,28,0,2.55,clear sky,0.000,0
467,Bahia Blanca,AR,2020-04-17 19:33:27,-38.72,-62.27,76.55,39,0,14.14,clear sky,0.000,0
468,Vanimo,PG,2020-04-17 19:33:27,-2.67,141.3,79.34,82,100,5.93,overcast clouds,0.000,0
469,Kandrian,PG,2020-04-17 19:33:28,-6.22,149.55,79.02,82,71,3.85,broken clouds,0.000,0
470,Moranbah,AU,2020-04-17 19:33:29,-22.0,148.05,69.37,77,1,4.14,clear sky,0.000,0
471,London,GB,2020-04-17 19:32:51,51.51,-0.13,53.01,62,100,11.41,light rain,0.290,0
472,Ponta Delgada,PT,2020-04-17 19:33:29,37.73,-25.67,62.6,72,20,6.93,few clouds,0.000,0
473,Toktogul,KG,2020-04-17 19:33:30,41.87,72.94,49.96,32,3,5.23,clear sky,0.000,0
474,Bereda,ES,2020-04-17 19:33:30,43.27,-7.54,55.99,85,0,7.0,light rain,0.140,0
475,Ulladulla,AU,2020-04-17 19:33:30,-35.35,150.47,57.2,58,0,13.87,clear sky,0.000,0
476,Mirnyy,RU,2020-04-17 19:33:30,62.54,113.96,5.0,65,2,8.95,clear sky,0.000,0
477,Katsuura,JP,2020-04-17 19:33:31,35.13,140.3,57.2,87,75,4.7,shower rain,0.000,0
478,Caucaia,BR,2020-04-17 19:28:44,-3.74,-38.65,86.0,66,20,5.82,few clouds,0.000,0
479,Gelibolu,TR,2020-04-17 19:33:39,40.41,26.67,54.7,72,99,4.16,overcast clouds,0.000,0
480,Havelock,US,2020-04-17 19:33:39,34.88,-76.9,71.6,28,1,21.92,clear sky,0.000,0
481,Campbeltown,GB,2020-04-17 19:32:05,55.43,-5.61,50.0,71,43,18.34,scattered clouds,0.000,0
482,Karratha,AU,2020-04-17 19:33:41,-20.74,116.85,82.47,55,91,8.66,overcast clouds,0.000,0
483,Bambous Virieux,MU,2020-04-17 19:33:41,-20.34,57.76,77.0,78,40,11.41,scattered clouds,0.000,0
484,Havoysund,NO,2020-04-17 19:33:42,71.0,24.66,37.4,79,75,29.97,broken clouds,0.000,0
485,Teguldet,RU,2020-04-17 19:33:42,57.31,88.17,30.69,96,0,2.19,clear sky,0.000,0
486,Vendychany,UA,2020-04-17 19:33:44,48.61,27.79,48.0,65,55,6.69,broken clouds,0.000,0
487,Puerto Escondido,MX,2020-04-17 19:28:52,15.85,-97.07,89.6,79,40,5.82,scattered clouds,0.000,0
488,Mareeba,AU,2020-04-17 19:33:45,-17.0,145.43,73.4,94,40,2.24,scattered clouds,0.000,0
489,Omboue,GA,2020-04-17 19:33:45,-1.57,9.26,76.24,93,100,4.14,moderate rain,6.630,0
490,Trelew,AR,2020-04-17 19:28:58,-43.25,-65.31,87.17,25,50,21.59,scattered clouds,0.000,0
491,Gao,ML,2020-04-17 19:33:47,16.64,1.64,90.41,10,0,8.19,clear sky,0.000,0
492,Byron Bay,AU,2020-04-17 19:33:47,-28.65,153.62,69.8,100,67,5.82,broken clouds,0.000,0
493,Camopi,GF,2020-04-17 19:33:47,3.17,-52.32,78.93,85,98,3.94,moderate rain,3.270,0
494,Puerto Leguizamo,CO,2020-04-17 19:33:47,-0.19,-74.78,77.18,87,99,4.14,moderate rain,4.820,0
495,San Policarpo,PH,2020-04-17 19:32:04,12.18,125.51,81.37,81,52,13.31,light rain,1.140,0
496,Gorontalo,ID,2020-04-17 19:33:48,0.54,123.06,75.76,85,48,3.11,scattered clouds,0.000,0
497,Agadir,MA,2020-04-17 19:33:48,30.42,-9.6,68.0,60,0,13.87,clear sky,0.000,0
498,Lata,PT,2020-04-17 19:33:50,40.16,-8.33,61.0,77,2,1.01,clear sky,0.000,0
499,Itarema,BR,2020-04-17 19:33:51,-2.92,-39.92,78.53,87,76,5.3,light rain,0.630,0
500,Goure,NE,2020-04-17 19:33:51,13.98,10.27,90.0,2,0,4.0,clear sky,0.000,0
501,Coruripe,BR,2020-04-17 19:32:16,-10.13,-36.18,81.23,81,1,10.25,light rain,0.140,0
502,Ginir,ET,2020-04-17 19:33:52,7.13,40.7,61.29,58,100,1.9,moderate rain,4.270,0
503,Umm Lajj,SA,2020-04-17 19:33:52,25.02,37.27,70.7,62,3,6.67,clear sky,0.000,0
504,Jalingo,NG,2020-04-17 19:33:53,8.88,11.37,90.57,26,0,4.18,clear sky,0.000,0
505,Sabaudia,IT,2020-04-17 19:33:55,41.3,13.03,57.99,90,16,4.27,few clouds,0.000,0
506,Perevolotskiy,RU,2020-04-17 19:33:56,51.88,54.19,39.42,78,7,13.38,clear sky,0.000,0
507,Yulara,AU,2020-04-17 19:33:15,-25.24,130.99,69.8,40,84,6.93,broken clouds,0.000,0
508,Doha,QA,2020-04-17 19:30:23,25.29,51.53,77.0,69,3,3.36,clear sky,0.000,0
509,Ambulu,ID,2020-04-17 19:33:58,-8.35,113.61,78.35,79,96,3.62,overcast clouds,0.000,0
510,Manacapuru,BR,2020-04-17 19:33:58,-3.3,-60.62,78.8,88,40,9.17,shower rain,0.000,0
511,Reconquista,AR,2020-04-17 19:33:58,-29.15,-59.65,71.38,39,0,3.44,clear sky,0.000,0
512,Pafos,CY,2020-04-17 19:33:59,34.77,32.42,64.4,82,0,2.24,clear sky,0.000,0
513,Prince Rupert,CA,2020-04-17 19:30:59,54.32,-130.32,46.4,100,90,5.82,mist,0.000,0
514,Hami,CN,2020-04-17 19:33:59,42.8,93.45,58.62,25,5,6.78,clear sky,0.000,0
515,Shimoda,JP,2020-04-17 19:34:00,34.67,138.95,55.4,93,75,4.7,shower rain,0.000,0
516,San Juan Del Sur,NI,2020-04-17 19:34:00,11.25,-85.87,91.4,46,20,6.93,few clouds,0.000,0
517,Yagodnoye,RU,2020-04-17 19:34:01,62.55,149.67,-1.12,83,100,5.93,light snow,0.000,0
518,Kothapet,IN,2020-04-17 19:34:02,19.33,79.48,86.72,29,13,6.15,few clouds,0.000,0
519,Zyryanka,RU,2020-04-17 19:34:03,65.75,150.85,0.81,92,100,17.83,light snow,0.000,0
520,Viramgam,IN,2020-04-17 19:34:05,23.12,72.05,86.0,45,9,10.78,smoke,0.000,0
521,Badvel,IN,2020-04-17 19:34:06,14.75,79.05,77.07,76,0,2.89,clear sky,0.000,0
522,Port Hardy,CA,2020-04-17 19:34:07,50.7,-127.42,53.6,76,75,12.75,broken clouds,0.000,0
523,Japura,ID,2020-04-17 19:34:10,-0.32,102.35,72.99,94,53,0.43,light rain,1.050,0
524,Taoudenni,ML,2020-04-17 19:34:11,22.68,-3.98,96.66,14,26,6.96,scattered clouds,0.000,0
525,Poum,NC,2020-04-17 19:34:13,-20.23,164.02,78.44,76,99,11.5,overcast clouds,0.000,0
526,Sitka,US,2020-04-17 19:34:15,57.05,-135.33,46.4,87,20,4.7,few clouds,0.000,0
527,Waddan,LY,2020-04-17 19:34:16,29.16,16.14,70.63,37,0,12.64,clear sky,0.000,0
528,Tevriz,RU,2020-04-17 19:34:18,57.51,72.4,48.72,66,100,10.42,overcast clouds,0.000,0
529,Obidos,BR,2020-04-17 19:34:19,-1.92,-55.52,80.44,79,72,4.63,broken clouds,0.000,0
530,Rantauprapat,ID,2020-04-17 19:34:21,2.1,99.83,73.94,90,89,2.01,light rain,0.170,0
531,Tamandare,BR,2020-04-17 19:34:22,-8.76,-35.1,81.84,78,1,8.01,clear sky,0.000,0
532,Huarmey,PE,2020-04-17 19:34:23,-10.07,-78.15,79.05,61,23,10.18,few clouds,0.000,0
533,Mount Isa,AU,2020-04-17 19:34:24,-20.73,139.5,75.2,36,19,9.17,few clouds,0.000,0
534,Lakeland Highlands,US,2020-04-17 19:32:39,27.96,-81.95,84.99,64,75,8.05,broken clouds,0.000,0
535,Tautira,PF,2020-04-17 19:33:24,-17.73,-149.15,87.8,62,92,9.17,light rain,1.400,0
536,Tromso,NO,2020-04-17 19:34:25,69.65,18.96,35.6,64,75,31.09,shower rain,0.000,0
537,Voh,NC,2020-04-17 19:34:27,-20.97,164.7,75.65,81,100,4.97,overcast clouds,0.000,0
538,Lewistown,US,2020-04-17 19:34:27,40.6,-77.57,35.6,100,90,4.7,light rain,0.000,0
539,Sakakah,SA,2020-04-17 19:34:27,29.97,40.21,73.4,23,40,12.75,scattered clouds,0.000,0
540,Baykit,RU,2020-04-17 19:34:28,61.67,96.37,28.74,95,95,2.62,light snow,0.000,0
541,Kraskino,RU,2020-04-17 19:34:29,42.71,130.78,39.79,85,89,5.12,overcast clouds,0.000,0
542,Tevaitoa,PF,2020-04-17 19:34:29,-16.78,-151.5,83.55,69,100,7.52,overcast clouds,0.000,0
543,Charters Towers,AU,2020-04-17 19:34:31,-20.1,146.27,73.0,77,26,3.51,scattered clouds,0.000,0
544,Launceston,AU,2020-04-17 19:34:32,-41.45,147.17,46.4,65,75,3.36,broken clouds,0.000,0
545,Stornoway,GB,2020-04-17 19:34:34,58.21,-6.39,50.0,71,0,10.29,clear sky,0.000,0
546,Bagdarin,RU,2020-04-17 19:34:35,54.43,113.6,34.65,57,100,4.72,light snow,0.000,0
547,Kumluca,TR,2020-04-17 19:34:36,36.37,30.29,62.82,59,0,4.9,clear sky,0.000,0
548,Asyut,EG,2020-04-17 19:34:38,27.18,31.18,71.6,49,97,13.87,overcast clouds,0.000,0
549,Saint Andrews,US,2020-04-17 19:34:39,34.05,-81.13,75.99,35,40,11.41,scattered clouds,0.000,0
550,Pathein,MM,2020-04-17 19:34:41,16.78,94.73,74.37,85,0,5.61,clear sky,0.000,0
551,Cuaspud,CO,2020-04-17 19:34:43,0.86,-77.73,57.2,76,90,5.82,overcast clouds,0.000,0
552,Nanuque,BR,2020-04-17 19:34:43,-17.84,-40.35,75.33,86,20,9.71,light rain,1.530,0
553,Iberia,US,2020-04-17 19:34:45,29.95,-91.75,80.6,61,75,10.29,broken clouds,0.000,0
554,Namatanai,PG,2020-04-17 19:34:47,-3.67,152.43,80.98,76,100,3.24,overcast clouds,0.000,0
555,Guanica,PR,2020-04-17 19:34:48,17.97,-66.91,84.99,55,27,7.0,light rain,1.520,0
556,Aksarka,RU,2020-04-17 19:34:48,66.56,67.8,36.28,97,100,16.73,light rain,2.270,0
557,Viseu,PT,2020-04-17 19:32:01,40.66,-7.91,61.0,1,4,3.0,clear sky,0.000,0
558,Verkhneyarkeyevo,RU,2020-04-17 19:34:50,55.45,54.31,38.61,83,42,11.61,scattered clouds,0.000,0
559,Rio Gallegos,AR,2020-04-17 19:34:51,-51.62,-69.22,60.8,38,0,19.46,clear sky,0.000,0
560,Saint Stephen,GB,2020-04-17 19:34:52,50.33,-4.9,52.0,93,100,23.04,light rain,0.450,0
561,Antequera,ES,2020-04-17 19:34:53,37.02,-4.56,62.6,77,20,8.05,few clouds,0.000,0
